__time,friendlyHostname,location,ipAddress,sneId,voltageAvg,voltageSum,wattageAvg,wattageSum,platform,type,vendor,model,interfaceName,hostname
Mon Apr 01 2024 00:00:07 GMT+0000 (Greenwich Mean Time),core-aln1,l-sws,10.162.3.49,20641899,24753.32143,1386186,131916.1071,7387302,21c,Device,nokia,7950-xrs-20,,core-aln1.l-sws.21cn-infra.bt.com
Mon Apr 01 2024 00:00:11 GMT+0000 (Greenwich Mean Time),core-aln1,wv,10.162.3.13,20615614,24784.73214,1387945,133024.0536,7449347,21c,Device,nokia,7950-xrs-20,,core-aln1.wv.21cn-infra.bt.com
Mon Apr 01 2024 00:00:11 GMT+0000 (Greenwich Mean Time),core-aln2,l-sws,10.162.3.177,20641901,24738.75,1385370,132200.75,7403242,21c,Device,nokia,7950-xrs-20,,core-aln2.l-sws.21cn-infra.bt.com
Mon Apr 01 2024 00:00:13 GMT+0000 (Greenwich Mean Time),core-aln2,cf-c,10.162.3.140,20596623,27481.36667,1648882,156048.1667,9362890,21c,Device,nokia,7950-xrs-20,,core-aln2.cf-c.21cn-infra.bt.com
Mon Apr 01 2024 00:00:16 GMT+0000 (Greenwich Mean Time),core-aln1,pe,10.162.3.10,20615566,28299.26667,1697956,162638.1167,9758287,21c,Device,nokia,7950-xrs-20,,core-aln1.pe.21cn-infra.bt.com
Mon Apr 01 2024 00:00:16 GMT+0000 (Greenwich Mean Time),core-aln2,pe,10.162.3.138,20615569,28303.48333,1698209,162878.6833,9772721,21c,Device,nokia,7950-xrs-20,,core-aln2.pe.21cn-infra.bt.com
Mon Apr 01 2024 00:00:19 GMT+0000 (Greenwich Mean Time),core-aln2,wv,10.162.3.141,20615616,24776.10714,1387462,131376.1071,7357062,21c,Device,nokia,7950-xrs-20,,core-aln2.wv.21cn-infra.bt.com
Mon Apr 01 2024 00:00:21 GMT+0000 (Greenwich Mean Time),core-aln1,l-far,10.162.3.0,20607803,33926.32353,2306990,220759.8529,15011670,21c,Device,nokia,7950-xrs-20,,core-aln1.l-far.21cn-infra.bt.com
Mon Apr 01 2024 00:00:26 GMT+0000 (Greenwich Mean Time),core-aln2,l-far,10.162.3.128,20607805,33907.57353,2305715,222790.7941,15149774,21c,Device,nokia,7950-xrs-20,,core-aln2.l-far.21cn-infra.bt.com
Mon Apr 01 2024 00:00:33 GMT+0000 (Greenwich Mean Time),core-aln1,cf-c,10.162.3.12,20596620,27436.46667,1646188,155960.2667,9357616,21c,Device,nokia,7950-xrs-20,,core-aln1.cf-c.21cn-infra.bt.com
Mon Apr 01 2024 00:01:03 GMT+0000 (Greenwich Mean Time),core-aln2,pe,10.162.3.138,20615569,28302.01667,1698121,164656.1333,9879368,21c,Device,nokia,7950-xrs-20,,core-aln2.pe.21cn-infra.bt.com
Mon Apr 01 2024 00:01:10 GMT+0000 (Greenwich Mean Time),core-aln2,l-far,10.162.3.128,20607805,33906.92647,2305671,222697.8971,15143457,21c,Device,nokia,7950-xrs-20,,core-aln2.l-far.21cn-infra.bt.com
Mon Apr 01 2024 00:01:11 GMT+0000 (Greenwich Mean Time),core-aln2,cf-c,10.162.3.140,20596623,27481.36667,1648882,156087.05,9365223,21c,Device,nokia,7950-xrs-20,,core-aln2.cf-c.21cn-infra.bt.com
Mon Apr 01 2024 00:01:11 GMT+0000 (Greenwich Mean Time),core-aln1,wv,10.162.3.13,20615614,24783.94643,1387901,133112.2857,7454288,21c,Device,nokia,7950-xrs-20,,core-aln1.wv.21cn-infra.bt.com
Mon Apr 01 2024 00:01:11 GMT+0000 (Greenwich Mean Time),core-aln1,l-sws,10.162.3.49,20641899,24754.89286,1386274,131827.7857,7382356,21c,Device,nokia,7950-xrs-20,,core-aln1.l-sws.21cn-infra.bt.com
Mon Apr 01 2024 00:01:11 GMT+0000 (Greenwich Mean Time),core-aln2,l-sws,10.162.3.177,20641901,24734.82143,1385150,132163.9464,7401181,21c,Device,nokia,7950-xrs-20,,core-aln2.l-sws.21cn-infra.bt.com
Mon Apr 01 2024 00:01:14 GMT+0000 (Greenwich Mean Time),core-aln2,wv,10.162.3.141,20615616,24777.67857,1387550,131346.7143,7355416,21c,Device,nokia,7950-xrs-20,,core-aln2.wv.21cn-infra.bt.com
Mon Apr 01 2024 00:01:23 GMT+0000 (Greenwich Mean Time),core-aln1,cf-c,10.162.3.12,20596620,27436.46667,1646188,155077.55,9304653,21c,Device,nokia,7950-xrs-20,,core-aln1.cf-c.21cn-infra.bt.com
Mon Apr 01 2024 00:01:23 GMT+0000 (Greenwich Mean Time),core-aln1,pe,10.162.3.10,20615566,28299.63333,1697978,162571.75,9754305,21c,Device,nokia,7950-xrs-20,,core-aln1.pe.21cn-infra.bt.com
Mon Apr 01 2024 00:01:24 GMT+0000 (Greenwich Mean Time),core-aln1,l-far,10.162.3.0,20607803,33925.35294,2306924,220707.3529,15008100,21c,Device,nokia,7950-xrs-20,,core-aln1.l-far.21cn-infra.bt.com
Mon Apr 01 2024 00:02:04 GMT+0000 (Greenwich Mean Time),core-aln2,pe,10.162.3.138,20615569,28300.18333,1698011,164534.8333,9872090,21c,Device,nokia,7950-xrs-20,,core-aln2.pe.21cn-infra.bt.com
Mon Apr 01 2024 00:02:07 GMT+0000 (Greenwich Mean Time),core-aln2,l-far,10.162.3.128,20607805,33906.92647,2305671,222780.7059,15149088,21c,Device,nokia,7950-xrs-20,,core-aln2.l-far.21cn-infra.bt.com
Mon Apr 01 2024 00:02:07 GMT+0000 (Greenwich Mean Time),core-aln2,l-sws,10.162.3.177,20641901,24733.25,1385062,133897.4821,7498259,21c,Device,nokia,7950-xrs-20,,core-aln2.l-sws.21cn-infra.bt.com
Mon Apr 01 2024 00:02:10 GMT+0000 (Greenwich Mean Time),core-aln1,l-sws,10.162.3.49,20641899,24755.28571,1386296,131815.5357,7381670,21c,Device,nokia,7950-xrs-20,,core-aln1.l-sws.21cn-infra.bt.com
Mon Apr 01 2024 00:02:12 GMT+0000 (Greenwich Mean Time),core-aln1,cf-c,10.162.3.12,20596620,27436.83333,1646210,155040.9833,9302459,21c,Device,nokia,7950-xrs-20,,core-aln1.cf-c.21cn-infra.bt.com
Mon Apr 01 2024 00:02:12 GMT+0000 (Greenwich Mean Time),core-aln2,cf-c,10.162.3.140,20596623,27482.83333,1648970,155176.2667,9310576,21c,Device,nokia,7950-xrs-20,,core-aln2.cf-c.21cn-infra.bt.com
Mon Apr 01 2024 00:02:13 GMT+0000 (Greenwich Mean Time),core-aln1,l-far,10.162.3.0,20607803,33926,2306968,220761.8824,15011808,21c,Device,nokia,7950-xrs-20,,core-aln1.l-far.21cn-infra.bt.com
Mon Apr 01 2024 00:02:15 GMT+0000 (Greenwich Mean Time),core-aln1,wv,10.162.3.13,20615614,24785.125,1387967,133149.0893,7456349,21c,Device,nokia,7950-xrs-20,,core-aln1.wv.21cn-infra.bt.com
Mon Apr 01 2024 00:02:18 GMT+0000 (Greenwich Mean Time),core-aln2,wv,10.162.3.141,20615616,24781.19643,1387747,129483.2679,7251063,21c,Device,nokia,7950-xrs-20,,core-aln2.wv.21cn-infra.bt.com
Mon Apr 01 2024 00:02:19 GMT+0000 (Greenwich Mean Time),core-aln1,pe,10.162.3.10,20615566,28299.63333,1697978,162599.1833,9755951,21c,Device,nokia,7950-xrs-20,,core-aln1.pe.21cn-infra.bt.com
Mon Apr 01 2024 00:03:03 GMT+0000 (Greenwich Mean Time),core-aln1,wv,10.162.3.13,20615614,24784.33929,1387923,133124.5714,7454976,21c,Device,nokia,7950-xrs-20,,core-aln1.wv.21cn-infra.bt.com
Mon Apr 01 2024 00:03:08 GMT+0000 (Greenwich Mean Time),core-aln2,cf-c,10.162.3.140,20596623,27484.66667,1649080,155148.8167,9308929,21c,Device,nokia,7950-xrs-20,,core-aln2.cf-c.21cn-infra.bt.com
Mon Apr 01 2024 00:03:08 GMT+0000 (Greenwich Mean Time),core-aln2,pe,10.162.3.138,20615569,28298.71667,1697923,164363.2,9861792,21c,Device,nokia,7950-xrs-20,,core-aln2.pe.21cn-infra.bt.com
Mon Apr 01 2024 00:03:10 GMT+0000 (Greenwich Mean Time),core-aln1,l-sws,10.162.3.49,20641899,24755.28571,1386296,131827.8036,7382357,21c,Device,nokia,7950-xrs-20,,core-aln1.l-sws.21cn-infra.bt.com
Mon Apr 01 2024 00:03:10 GMT+0000 (Greenwich Mean Time),core-aln2,l-sws,10.162.3.177,20641901,24736.78571,1385260,133767.5357,7490982,21c,Device,nokia,7950-xrs-20,,core-aln2.l-sws.21cn-infra.bt.com
Mon Apr 01 2024 00:03:11 GMT+0000 (Greenwich Mean Time),core-aln1,cf-c,10.162.3.12,20596620,27436.1,1646166,155040.9833,9302459,21c,Device,nokia,7950-xrs-20,,core-aln1.cf-c.21cn-infra.bt.com
Mon Apr 01 2024 00:03:14 GMT+0000 (Greenwich Mean Time),core-aln2,l-far,10.162.3.128,20607805,33906.60294,2305649,222766.5735,15148127,21c,Device,nokia,7950-xrs-20,,core-aln2.l-far.21cn-infra.bt.com
Mon Apr 01 2024 00:03:18 GMT+0000 (Greenwich Mean Time),core-aln2,wv,10.162.3.141,20615616,24781.58929,1387769,129583.7857,7256692,21c,Device,nokia,7950-xrs-20,,core-aln2.wv.21cn-infra.bt.com
Mon Apr 01 2024 00:03:19 GMT+0000 (Greenwich Mean Time),core-aln1,pe,10.162.3.10,20615566,28299.63333,1697978,162544.2667,9752656,21c,Device,nokia,7950-xrs-20,,core-aln1.pe.21cn-infra.bt.com
Mon Apr 01 2024 00:03:21 GMT+0000 (Greenwich Mean Time),core-aln1,l-far,10.162.3.0,20607803,33926,2306968,220794.1765,15014004,21c,Device,nokia,7950-xrs-20,,core-aln1.l-far.21cn-infra.bt.com
Mon Apr 01 2024 00:04:07 GMT+0000 (Greenwich Mean Time),core-aln2,pe,10.162.3.138,20615569,28299.45,1697967,164308.3,9858498,21c,Device,nokia,7950-xrs-20,,core-aln2.pe.21cn-infra.bt.com
Mon Apr 01 2024 00:04:07 GMT+0000 (Greenwich Mean Time),core-aln2,l-sws,10.162.3.177,20641901,24736.39286,1385238,131837.8929,7382922,21c,Device,nokia,7950-xrs-20,,core-aln2.l-sws.21cn-infra.bt.com
Mon Apr 01 2024 00:04:11 GMT+0000 (Greenwich Mean Time),core-aln2,cf-c,10.162.3.140,20596623,27485.76667,1649146,154514.9,9270894,21c,Device,nokia,7950-xrs-20,,core-aln2.cf-c.21cn-infra.bt.com
Mon Apr 01 2024 00:04:11 GMT+0000 (Greenwich Mean Time),core-aln1,wv,10.162.3.13,20615614,24784.73214,1387945,133019.1786,7449074,21c,Device,nokia,7950-xrs-20,,core-aln1.wv.21cn-infra.bt.com
Mon Apr 01 2024 00:04:14 GMT+0000 (Greenwich Mean Time),core-aln2,l-far,10.162.3.128,20607805,33905.63235,2305583,222756.4853,15147441,21c,Device,nokia,7950-xrs-20,,core-aln2.l-far.21cn-infra.bt.com
Mon Apr 01 2024 00:04:15 GMT+0000 (Greenwich Mean Time),core-aln1,cf-c,10.162.3.12,20596620,27436.46667,1646188,155912.2,9354732,21c,Device,nokia,7950-xrs-20,,core-aln1.cf-c.21cn-infra.bt.com
Mon Apr 01 2024 00:04:15 GMT+0000 (Greenwich Mean Time),core-aln1,l-sws,10.162.3.49,20641899,24754.89286,1386274,131798.375,7380709,21c,Device,nokia,7950-xrs-20,,core-aln1.l-sws.21cn-infra.bt.com
Mon Apr 01 2024 00:04:16 GMT+0000 (Greenwich Mean Time),core-aln1,pe,10.162.3.10,20615566,28299.26667,1697956,162548.85,9752931,21c,Device,nokia,7950-xrs-20,,core-aln1.pe.21cn-infra.bt.com
Mon Apr 01 2024 00:04:18 GMT+0000 (Greenwich Mean Time),core-aln2,wv,10.162.3.141,20615616,24782.76786,1387835,129659.7679,7260947,21c,Device,nokia,7950-xrs-20,,core-aln2.wv.21cn-infra.bt.com
Mon Apr 01 2024 00:04:25 GMT+0000 (Greenwich Mean Time),core-aln1,l-far,10.162.3.0,20607803,33926,2306968,220780.0588,15013044,21c,Device,nokia,7950-xrs-20,,core-aln1.l-far.21cn-infra.bt.com
Mon Apr 01 2024 00:05:03 GMT+0000 (Greenwich Mean Time),core-aln2,wv,10.162.3.141,20615616,24782.75,1387834,129713.75,7263970,21c,Device,nokia,7950-xrs-20,,core-aln2.wv.21cn-infra.bt.com
Mon Apr 01 2024 00:05:10 GMT+0000 (Greenwich Mean Time),core-aln1,l-sws,10.162.3.49,20641899,24754.89286,1386274,131798.375,7380709,21c,Device,nokia,7950-xrs-20,,core-aln1.l-sws.21cn-infra.bt.com
Mon Apr 01 2024 00:05:10 GMT+0000 (Greenwich Mean Time),core-aln2,l-sws,10.162.3.177,20641901,24736.39286,1385238,131850.1429,7383608,21c,Device,nokia,7950-xrs-20,,core-aln2.l-sws.21cn-infra.bt.com
Mon Apr 01 2024 00:05:11 GMT+0000 (Greenwich Mean Time),core-aln2,cf-c,10.162.3.140,20596623,27485.76667,1649146,154469.1167,9268147,21c,Device,nokia,7950-xrs-20,,core-aln2.cf-c.21cn-infra.bt.com
Mon Apr 01 2024 00:05:11 GMT+0000 (Greenwich Mean Time),core-aln1,wv,10.162.3.13,20615614,24783.94643,1387901,133119.6786,7454702,21c,Device,nokia,7950-xrs-20,,core-aln1.wv.21cn-infra.bt.com
Mon Apr 01 2024 00:05:14 GMT+0000 (Greenwich Mean Time),core-aln2,l-far,10.162.3.128,20607805,33906.92647,2305671,222804.9265,15150735,21c,Device,nokia,7950-xrs-20,,core-aln2.l-far.21cn-infra.bt.com
Mon Apr 01 2024 00:05:15 GMT+0000 (Greenwich Mean Time),core-aln1,cf-c,10.162.3.12,20596620,27437.2,1646232,155066.1167,9303967,21c,Device,nokia,7950-xrs-20,,core-aln1.cf-c.21cn-infra.bt.com
Mon Apr 01 2024 00:05:18 GMT+0000 (Greenwich Mean Time),core-aln1,l-far,10.162.3.0,20607803,33926.64706,2307012,220786.1324,15013457,21c,Device,nokia,7950-xrs-20,,core-aln1.l-far.21cn-infra.bt.com
Mon Apr 01 2024 00:05:22 GMT+0000 (Greenwich Mean Time),core-aln2,pe,10.162.3.138,20615569,28301.28333,1698077,164203.0333,9852182,21c,Device,nokia,7950-xrs-20,,core-aln2.pe.21cn-infra.bt.com
Mon Apr 01 2024 00:05:23 GMT+0000 (Greenwich Mean Time),core-aln1,pe,10.162.3.10,20615566,28298.55,1697913,162528.2667,9751696,21c,Device,nokia,7950-xrs-20,,core-aln1.pe.21cn-infra.bt.com
Mon Apr 01 2024 00:06:06 GMT+0000 (Greenwich Mean Time),core-aln1,l-sws,10.162.3.49,20641899,24754.89286,1386274,131815.5179,7381669,21c,Device,nokia,7950-xrs-20,,core-aln1.l-sws.21cn-infra.bt.com
Mon Apr 01 2024 00:06:07 GMT+0000 (Greenwich Mean Time),core-aln1,cf-c,10.162.3.12,20596620,27437.2,1646232,155038,9302280,21c,Device,nokia,7950-xrs-20,,core-aln1.cf-c.21cn-infra.bt.com
Mon Apr 01 2024 00:06:07 GMT+0000 (Greenwich Mean Time),core-aln1,wv,10.162.3.13,20615614,24783.94643,1387901,132999.5179,7447973,21c,Device,nokia,7950-xrs-20,,core-aln1.wv.21cn-infra.bt.com
Mon Apr 01 2024 00:06:07 GMT+0000 (Greenwich Mean Time),core-aln2,wv,10.162.3.141,20615616,24781.96429,1387790,129743.1607,7265617,21c,Device,nokia,7950-xrs-20,,core-aln2.wv.21cn-infra.bt.com
Mon Apr 01 2024 00:06:07 GMT+0000 (Greenwich Mean Time),core-aln2,l-sws,10.162.3.177,20641901,24737.96429,1385326,131845.2679,7383335,21c,Device,nokia,7950-xrs-20,,core-aln2.l-sws.21cn-infra.bt.com
Mon Apr 01 2024 00:06:08 GMT+0000 (Greenwich Mean Time),core-aln2,cf-c,10.162.3.140,20596623,27486.13333,1649168,154569.8,9274188,21c,Device,nokia,7950-xrs-20,,core-aln2.cf-c.21cn-infra.bt.com
Mon Apr 01 2024 00:06:10 GMT+0000 (Greenwich Mean Time),core-aln2,l-far,10.162.3.128,20607805,33906.92647,2305671,222829.1618,15152383,21c,Device,nokia,7950-xrs-20,,core-aln2.l-far.21cn-infra.bt.com
Mon Apr 01 2024 00:06:11 GMT+0000 (Greenwich Mean Time),core-aln1,pe,10.162.3.10,20615566,28299.63333,1697978,162489.3833,9749363,21c,Device,nokia,7950-xrs-20,,core-aln1.pe.21cn-infra.bt.com
Mon Apr 01 2024 00:06:11 GMT+0000 (Greenwich Mean Time),core-aln2,pe,10.162.3.138,20615569,28302.38333,1698143,164319.75,9859185,21c,Device,nokia,7950-xrs-20,,core-aln2.pe.21cn-infra.bt.com
Mon Apr 01 2024 00:06:25 GMT+0000 (Greenwich Mean Time),core-aln1,l-far,10.162.3.0,20607803,33925.67647,2306946,220776.0147,15012769,21c,Device,nokia,7950-xrs-20,,core-aln1.l-far.21cn-infra.bt.com
Mon Apr 01 2024 00:07:03 GMT+0000 (Greenwich Mean Time),core-aln2,wv,10.162.3.141,20615616,24775.71429,1387440,131510.9643,7364614,21c,Device,nokia,7950-xrs-20,,core-aln2.wv.21cn-infra.bt.com
Mon Apr 01 2024 00:07:06 GMT+0000 (Greenwich Mean Time),core-aln1,wv,10.162.3.13,20615614,24784.73214,1387945,133082.875,7452641,21c,Device,nokia,7950-xrs-20,,core-aln1.wv.21cn-infra.bt.com
Mon Apr 01 2024 00:07:06 GMT+0000 (Greenwich Mean Time),core-aln1,l-sws,10.162.3.49,20641899,24754.89286,1386274,131702.7679,7375355,21c,Device,nokia,7950-xrs-20,,core-aln1.l-sws.21cn-infra.bt.com
Mon Apr 01 2024 00:07:07 GMT+0000 (Greenwich Mean Time),core-aln2,l-sws,10.162.3.177,20641901,24738.75,1385370,132053.6964,7395007,21c,Device,nokia,7950-xrs-20,,core-aln2.l-sws.21cn-infra.bt.com
Mon Apr 01 2024 00:07:09 GMT+0000 (Greenwich Mean Time),core-aln1,l-far,10.162.3.0,20607803,33925.35294,2306924,220794.1618,15014003,21c,Device,nokia,7950-xrs-20,,core-aln1.l-far.21cn-infra.bt.com
Mon Apr 01 2024 00:07:11 GMT+0000 (Greenwich Mean Time),core-aln1,pe,10.162.3.10,20615566,28298.9,1697934,162450.4667,9747028,21c,Device,nokia,7950-xrs-20,,core-aln1.pe.21cn-infra.bt.com
Mon Apr 01 2024 00:07:11 GMT+0000 (Greenwich Mean Time),core-aln2,pe,10.162.3.138,20615569,28303.11667,1698187,163479.8833,9808793,21c,Device,nokia,7950-xrs-20,,core-aln2.pe.21cn-infra.bt.com
Mon Apr 01 2024 00:07:12 GMT+0000 (Greenwich Mean Time),core-aln1,cf-c,10.162.3.12,20596620,27436.46667,1646188,154987.6667,9299260,21c,Device,nokia,7950-xrs-20,,core-aln1.cf-c.21cn-infra.bt.com
Mon Apr 01 2024 00:07:13 GMT+0000 (Greenwich Mean Time),core-aln2,l-far,10.162.3.128,20607805,33907.25,2305693,222780.6765,15149086,21c,Device,nokia,7950-xrs-20,,core-aln2.l-far.21cn-infra.bt.com
Mon Apr 01 2024 00:07:15 GMT+0000 (Greenwich Mean Time),core-aln2,cf-c,10.162.3.140,20596623,27483.93333,1649036,154597.2667,9275836,21c,Device,nokia,7950-xrs-20,,core-aln2.cf-c.21cn-infra.bt.com
Mon Apr 01 2024 00:08:06 GMT+0000 (Greenwich Mean Time),core-aln1,l-sws,10.162.3.49,20641899,24754.5,1386252,131749.3214,7377962,21c,Device,nokia,7950-xrs-20,,core-aln1.l-sws.21cn-infra.bt.com
Mon Apr 01 2024 00:08:07 GMT+0000 (Greenwich Mean Time),core-aln2,wv,10.162.3.141,20615616,24774.92857,1387396,131292.7679,7352395,21c,Device,nokia,7950-xrs-20,,core-aln2.wv.21cn-infra.bt.com
Mon Apr 01 2024 00:08:11 GMT+0000 (Greenwich Mean Time),core-aln2,cf-c,10.162.3.140,20596623,27481.36667,1648882,156169.4167,9370165,21c,Device,nokia,7950-xrs-20,,core-aln2.cf-c.21cn-infra.bt.com
Mon Apr 01 2024 00:08:11 GMT+0000 (Greenwich Mean Time),core-aln1,pe,10.162.3.10,20615566,28300,1698000,162434.4667,9746068,21c,Device,nokia,7950-xrs-20,,core-aln1.pe.21cn-infra.bt.com
Mon Apr 01 2024 00:08:11 GMT+0000 (Greenwich Mean Time),core-aln2,l-sws,10.162.3.177,20641901,24738.35714,1385348,132070.8214,7395966,21c,Device,nokia,7950-xrs-20,,core-aln2.l-sws.21cn-infra.bt.com
Mon Apr 01 2024 00:08:13 GMT+0000 (Greenwich Mean Time),core-aln1,l-far,10.162.3.0,20607803,33926,2306968,220834.5588,15016750,21c,Device,nokia,7950-xrs-20,,core-aln1.l-far.21cn-infra.bt.com
Mon Apr 01 2024 00:08:14 GMT+0000 (Greenwich Mean Time),core-aln2,l-far,10.162.3.128,20607805,33906.60294,2305649,222756.4559,15147439,21c,Device,nokia,7950-xrs-20,,core-aln2.l-far.21cn-infra.bt.com
Mon Apr 01 2024 00:08:14 GMT+0000 (Greenwich Mean Time),core-aln1,wv,10.162.3.13,20615614,24783.94643,1387901,133024.0536,7449347,21c,Device,nokia,7950-xrs-20,,core-aln1.wv.21cn-infra.bt.com
Mon Apr 01 2024 00:08:15 GMT+0000 (Greenwich Mean Time),core-aln1,cf-c,10.162.3.12,20596620,27437.2,1646232,155066.1333,9303968,21c,Device,nokia,7950-xrs-20,,core-aln1.cf-c.21cn-infra.bt.com
Mon Apr 01 2024 00:08:15 GMT+0000 (Greenwich Mean Time),core-aln2,pe,10.162.3.138,20615569,28301.65,1698099,162707.0333,9762422,21c,Device,nokia,7950-xrs-20,,core-aln2.pe.21cn-infra.bt.com
Mon Apr 01 2024 00:09:09 GMT+0000 (Greenwich Mean Time),core-aln1,l-far,10.162.3.0,20607803,33925.67647,2306946,220776,15012768,21c,Device,nokia,7950-xrs-20,,core-aln1.l-far.21cn-infra.bt.com
Mon Apr 01 2024 00:09:10 GMT+0000 (Greenwich Mean Time),core-aln2,l-sws,10.162.3.177,20641901,24738.35714,1385348,132141.9286,7399948,21c,Device,nokia,7950-xrs-20,,core-aln2.l-sws.21cn-infra.bt.com
Mon Apr 01 2024 00:09:11 GMT+0000 (Greenwich Mean Time),core-aln1,pe,10.162.3.10,20615566,28299.63333,1697978,162379.55,9742773,21c,Device,nokia,7950-xrs-20,,core-aln1.pe.21cn-infra.bt.com
Mon Apr 01 2024 00:09:11 GMT+0000 (Greenwich Mean Time),core-aln2,pe,10.162.3.138,20615569,28302.01667,1698121,162745.9167,9764755,21c,Device,nokia,7950-xrs-20,,core-aln2.pe.21cn-infra.bt.com
Mon Apr 01 2024 00:09:13 GMT+0000 (Greenwich Mean Time),core-aln2,l-far,10.162.3.128,20607805,33907.89706,2305737,222766.5735,15148127,21c,Device,nokia,7950-xrs-20,,core-aln2.l-far.21cn-infra.bt.com
Mon Apr 01 2024 00:09:14 GMT+0000 (Greenwich Mean Time),core-aln1,wv,10.162.3.13,20615614,24783.94643,1387901,133102.5357,7453742,21c,Device,nokia,7950-xrs-20,,core-aln1.wv.21cn-infra.bt.com
Mon Apr 01 2024 00:09:14 GMT+0000 (Greenwich Mean Time),core-aln2,wv,10.162.3.141,20615616,24776.89286,1387506,131275.6071,7351434,21c,Device,nokia,7950-xrs-20,,core-aln2.wv.21cn-infra.bt.com
Mon Apr 01 2024 00:09:15 GMT+0000 (Greenwich Mean Time),core-aln1,cf-c,10.162.3.12,20596620,27436.46667,1646188,154990.65,9299439,21c,Device,nokia,7950-xrs-20,,core-aln1.cf-c.21cn-infra.bt.com
Mon Apr 01 2024 00:09:15 GMT+0000 (Greenwich Mean Time),core-aln2,cf-c,10.162.3.140,20596623,27481,1648860,156059.6167,9363577,21c,Device,nokia,7950-xrs-20,,core-aln2.cf-c.21cn-infra.bt.com
Mon Apr 01 2024 00:09:18 GMT+0000 (Greenwich Mean Time),core-aln1,l-sws,10.162.3.49,20641899,24755.28571,1386296,131744.4464,7377689,21c,Device,nokia,7950-xrs-20,,core-aln1.l-sws.21cn-infra.bt.com
Mon Apr 01 2024 00:10:04 GMT+0000 (Greenwich Mean Time),core-aln1,cf-c,10.162.3.12,20596620,27436.46667,1646188,154171.3667,9250282,21c,Device,nokia,7950-xrs-20,,core-aln1.cf-c.21cn-infra.bt.com
Mon Apr 01 2024 00:10:06 GMT+0000 (Greenwich Mean Time),core-aln1,wv,10.162.3.13,20615614,24784.33929,1387923,133048.5893,7450721,21c,Device,nokia,7950-xrs-20,,core-aln1.wv.21cn-infra.bt.com
Mon Apr 01 2024 00:10:06 GMT+0000 (Greenwich Mean Time),core-aln1,l-sws,10.162.3.49,20641899,24754.10714,1386230,131820.4107,7381943,21c,Device,nokia,7950-xrs-20,,core-aln1.l-sws.21cn-infra.bt.com
Mon Apr 01 2024 00:10:07 GMT+0000 (Greenwich Mean Time),core-aln2,cf-c,10.162.3.140,20596623,27482.46667,1648948,155970.35,9358221,21c,Device,nokia,7950-xrs-20,,core-aln2.cf-c.21cn-infra.bt.com
Mon Apr 01 2024 00:10:07 GMT+0000 (Greenwich Mean Time),core-aln2,wv,10.162.3.141,20615616,24777.67857,1387550,131241.2857,7349512,21c,Device,nokia,7950-xrs-20,,core-aln2.wv.21cn-infra.bt.com
Mon Apr 01 2024 00:10:07 GMT+0000 (Greenwich Mean Time),core-aln2,l-sws,10.162.3.177,20641901,24737.17857,1385282,132159.0714,7400908,21c,Device,nokia,7950-xrs-20,,core-aln2.l-sws.21cn-infra.bt.com
Mon Apr 01 2024 00:10:10 GMT+0000 (Greenwich Mean Time),core-aln2,l-far,10.162.3.128,20607805,33907.25,2305693,222897.8088,15157051,21c,Device,nokia,7950-xrs-20,,core-aln2.l-far.21cn-infra.bt.com
Mon Apr 01 2024 00:10:13 GMT+0000 (Greenwich Mean Time),core-aln1,l-far,10.162.3.0,20607803,33925.35294,2306924,220858.7941,15018398,21c,Device,nokia,7950-xrs-20,,core-aln1.l-far.21cn-infra.bt.com
Mon Apr 01 2024 00:10:15 GMT+0000 (Greenwich Mean Time),core-aln2,pe,10.162.3.138,20615569,28301.28333,1698077,163624.0333,9817442,21c,Device,nokia,7950-xrs-20,,core-aln2.pe.21cn-infra.bt.com
Mon Apr 01 2024 00:10:19 GMT+0000 (Greenwich Mean Time),core-aln1,pe,10.162.3.10,20615566,28298.53333,1697912,162477.9333,9748676,21c,Device,nokia,7950-xrs-20,,core-aln1.pe.21cn-infra.bt.com
Mon Apr 01 2024 00:11:07 GMT+0000 (Greenwich Mean Time),core-aln2,cf-c,10.162.3.140,20596623,27483.2,1648992,155997.8333,9359870,21c,Device,nokia,7950-xrs-20,,core-aln2.cf-c.21cn-infra.bt.com
Mon Apr 01 2024 00:11:07 GMT+0000 (Greenwich Mean Time),core-aln2,l-sws,10.162.3.177,20641901,24737.96429,1385326,132129.6607,7399261,21c,Device,nokia,7950-xrs-20,,core-aln2.l-sws.21cn-infra.bt.com
Mon Apr 01 2024 00:11:10 GMT+0000 (Greenwich Mean Time),core-aln1,l-sws,10.162.3.49,20641899,24754.89286,1386274,131761.5893,7378649,21c,Device,nokia,7950-xrs-20,,core-aln1.l-sws.21cn-infra.bt.com
Mon Apr 01 2024 00:11:11 GMT+0000 (Greenwich Mean Time),core-aln1,wv,10.162.3.13,20615614,24785.125,1387967,133060.8571,7451408,21c,Device,nokia,7950-xrs-20,,core-aln1.wv.21cn-infra.bt.com
Mon Apr 01 2024 00:11:11 GMT+0000 (Greenwich Mean Time),core-aln2,wv,10.162.3.141,20615616,24780.41071,1387703,129377.875,7245161,21c,Device,nokia,7950-xrs-20,,core-aln2.wv.21cn-infra.bt.com
Mon Apr 01 2024 00:11:12 GMT+0000 (Greenwich Mean Time),core-aln1,cf-c,10.162.3.12,20596620,27437.93333,1646276,154143.8833,9248633,21c,Device,nokia,7950-xrs-20,,core-aln1.cf-c.21cn-infra.bt.com
Mon Apr 01 2024 00:11:12 GMT+0000 (Greenwich Mean Time),core-aln1,pe,10.162.3.10,20615566,28299.26667,1697956,162429.8833,9745793,21c,Device,nokia,7950-xrs-20,,core-aln1.pe.21cn-infra.bt.com
Mon Apr 01 2024 00:11:13 GMT+0000 (Greenwich Mean Time),core-aln1,l-far,10.162.3.0,20607803,33926.32353,2306990,220693.25,15007141,21c,Device,nokia,7950-xrs-20,,core-aln1.l-far.21cn-infra.bt.com
Mon Apr 01 2024 00:11:15 GMT+0000 (Greenwich Mean Time),core-aln2,pe,10.162.3.138,20615569,28297.25,1697835,164356.35,9861381,21c,Device,nokia,7950-xrs-20,,core-aln2.pe.21cn-infra.bt.com
Mon Apr 01 2024 00:11:17 GMT+0000 (Greenwich Mean Time),core-aln2,l-far,10.162.3.128,20607805,33906.92647,2305671,222742.3382,15146479,21c,Device,nokia,7950-xrs-20,,core-aln2.l-far.21cn-infra.bt.com
Mon Apr 01 2024 00:12:07 GMT+0000 (Greenwich Mean Time),core-aln1,pe,10.162.3.10,20615566,28298.9,1697934,162445.9167,9746755,21c,Device,nokia,7950-xrs-20,,core-aln1.pe.21cn-infra.bt.com
Mon Apr 01 2024 00:12:08 GMT+0000 (Greenwich Mean Time),core-aln2,cf-c,10.162.3.140,20596623,27484.3,1649058,154238.05,9254283,21c,Device,nokia,7950-xrs-20,,core-aln2.cf-c.21cn-infra.bt.com
Mon Apr 01 2024 00:12:10 GMT+0000 (Greenwich Mean Time),core-aln2,l-far,10.162.3.128,20607805,33906.60294,2305649,222873.5882,15155404,21c,Device,nokia,7950-xrs-20,,core-aln2.l-far.21cn-infra.bt.com
Mon Apr 01 2024 00:12:11 GMT+0000 (Greenwich Mean Time),core-aln2,pe,10.162.3.138,20615569,28297.61667,1697857,164191.5833,9851495,21c,Device,nokia,7950-xrs-20,,core-aln2.pe.21cn-infra.bt.com
Mon Apr 01 2024 00:12:11 GMT+0000 (Greenwich Mean Time),core-aln2,wv,10.162.3.141,20615616,24781.98214,1387791,129466.1071,7250102,21c,Device,nokia,7950-xrs-20,,core-aln2.wv.21cn-infra.bt.com
Mon Apr 01 2024 00:12:11 GMT+0000 (Greenwich Mean Time),core-aln2,l-sws,10.162.3.177,20641901,24732.85714,1385040,133980.8393,7502927,21c,Device,nokia,7950-xrs-20,,core-aln2.l-sws.21cn-infra.bt.com
Mon Apr 01 2024 00:12:14 GMT+0000 (Greenwich Mean Time),core-aln1,l-sws,10.162.3.49,20641899,24754.89286,1386274,131744.4464,7377689,21c,Device,nokia,7950-xrs-20,,core-aln1.l-sws.21cn-infra.bt.com
Mon Apr 01 2024 00:12:15 GMT+0000 (Greenwich Mean Time),core-aln1,wv,10.162.3.13,20615614,24784.73214,1387945,133073.125,7452095,21c,Device,nokia,7950-xrs-20,,core-aln1.wv.21cn-infra.bt.com
Mon Apr 01 2024 00:12:16 GMT+0000 (Greenwich Mean Time),core-aln1,cf-c,10.162.3.12,20596620,27437.56667,1646254,155855,9351300,21c,Device,nokia,7950-xrs-20,,core-aln1.cf-c.21cn-infra.bt.com
Mon Apr 01 2024 00:12:18 GMT+0000 (Greenwich Mean Time),core-aln1,l-far,10.162.3.0,20607803,33925.35294,2306924,220679.1029,15006179,21c,Device,nokia,7950-xrs-20,,core-aln1.l-far.21cn-infra.bt.com
Mon Apr 01 2024 00:13:02 GMT+0000 (Greenwich Mean Time),core-aln1,l-sws,10.162.3.49,20641899,24755.28571,1386296,131815.5357,7381670,21c,Device,nokia,7950-xrs-20,,core-aln1.l-sws.21cn-infra.bt.com
Mon Apr 01 2024 00:13:06 GMT+0000 (Greenwich Mean Time),core-aln1,wv,10.162.3.13,20615614,24784.33929,1387923,133073.1071,7452094,21c,Device,nokia,7950-xrs-20,,core-aln1.wv.21cn-infra.bt.com
Mon Apr 01 2024 00:13:07 GMT+0000 (Greenwich Mean Time),core-aln1,cf-c,10.162.3.12,20596620,27436.1,1646166,154155.35,9249321,21c,Device,nokia,7950-xrs-20,,core-aln1.cf-c.21cn-infra.bt.com
Mon Apr 01 2024 00:13:07 GMT+0000 (Greenwich Mean Time),core-aln2,l-sws,10.162.3.177,20641901,24733.25,1385062,133767.5357,7490982,21c,Device,nokia,7950-xrs-20,,core-aln2.l-sws.21cn-infra.bt.com
Mon Apr 01 2024 00:13:08 GMT+0000 (Greenwich Mean Time),core-aln2,cf-c,10.162.3.140,20596623,27486.5,1649190,154265.4667,9255928,21c,Device,nokia,7950-xrs-20,,core-aln2.cf-c.21cn-infra.bt.com
Mon Apr 01 2024 00:13:09 GMT+0000 (Greenwich Mean Time),core-aln2,l-far,10.162.3.128,20607805,33906.60294,2305649,222873.5735,15155403,21c,Device,nokia,7950-xrs-20,,core-aln2.l-far.21cn-infra.bt.com
Mon Apr 01 2024 00:13:11 GMT+0000 (Greenwich Mean Time),core-aln2,wv,10.162.3.141,20615616,24782.375,1387813,129471,7250376,21c,Device,nokia,7950-xrs-20,,core-aln2.wv.21cn-infra.bt.com
Mon Apr 01 2024 00:13:13 GMT+0000 (Greenwich Mean Time),core-aln1,l-far,10.162.3.0,20607803,33926.64706,2307012,220765.9118,15012082,21c,Device,nokia,7950-xrs-20,,core-aln1.l-far.21cn-infra.bt.com
Mon Apr 01 2024 00:13:15 GMT+0000 (Greenwich Mean Time),core-aln1,pe,10.162.3.10,20615566,28300,1698000,162461.9167,9747715,21c,Device,nokia,7950-xrs-20,,core-aln1.pe.21cn-infra.bt.com
Mon Apr 01 2024 00:13:15 GMT+0000 (Greenwich Mean Time),core-aln2,pe,10.162.3.138,20615569,28299.45,1697967,164136.6833,9848201,21c,Device,nokia,7950-xrs-20,,core-aln2.pe.21cn-infra.bt.com
Mon Apr 01 2024 00:14:06 GMT+0000 (Greenwich Mean Time),core-aln1,l-sws,10.162.3.49,20641899,24755.28571,1386296,131786.125,7380023,21c,Device,nokia,7950-xrs-20,,core-aln1.l-sws.21cn-infra.bt.com
Mon Apr 01 2024 00:14:07 GMT+0000 (Greenwich Mean Time),core-aln1,cf-c,10.162.3.12,20596620,27437.56667,1646254,155011.2167,9300673,21c,Device,nokia,7950-xrs-20,,core-aln1.cf-c.21cn-infra.bt.com
Mon Apr 01 2024 00:14:10 GMT+0000 (Greenwich Mean Time),core-aln2,l-far,10.162.3.128,20607805,33906.92647,2305671,222800.8971,15150461,21c,Device,nokia,7950-xrs-20,,core-aln2.l-far.21cn-infra.bt.com
Mon Apr 01 2024 00:14:10 GMT+0000 (Greenwich Mean Time),core-aln2,wv,10.162.3.141,20615616,24783.53571,1387878,129684.3036,7262321,21c,Device,nokia,7950-xrs-20,,core-aln2.wv.21cn-infra.bt.com
Mon Apr 01 2024 00:14:11 GMT+0000 (Greenwich Mean Time),core-aln1,pe,10.162.3.10,20615566,28300,1698000,162434.45,9746067,21c,Device,nokia,7950-xrs-20,,core-aln1.pe.21cn-infra.bt.com
Mon Apr 01 2024 00:14:11 GMT+0000 (Greenwich Mean Time),core-aln1,wv,10.162.3.13,20615614,24784.73214,1387945,133048.5893,7450721,21c,Device,nokia,7950-xrs-20,,core-aln1.wv.21cn-infra.bt.com
Mon Apr 01 2024 00:14:14 GMT+0000 (Greenwich Mean Time),core-aln2,l-sws,10.162.3.177,20641901,24735.21429,1385172,132678.8929,7430018,21c,Device,nokia,7950-xrs-20,,core-aln2.l-sws.21cn-infra.bt.com
Mon Apr 01 2024 00:14:15 GMT+0000 (Greenwich Mean Time),core-aln2,cf-c,10.162.3.140,20596623,27485.76667,1649146,154425.6333,9265538,21c,Device,nokia,7950-xrs-20,,core-aln2.cf-c.21cn-infra.bt.com
Mon Apr 01 2024 00:14:15 GMT+0000 (Greenwich Mean Time),core-aln2,pe,10.162.3.138,20615569,28302.01667,1698121,164198.4833,9851909,21c,Device,nokia,7950-xrs-20,,core-aln2.pe.21cn-infra.bt.com
Mon Apr 01 2024 00:14:17 GMT+0000 (Greenwich Mean Time),core-aln1,l-far,10.162.3.0,20607803,33926.97059,2307034,220751.7941,15011122,21c,Device,nokia,7950-xrs-20,,core-aln1.l-far.21cn-infra.bt.com
Mon Apr 01 2024 00:15:03 GMT+0000 (Greenwich Mean Time),core-aln1,l-sws,10.162.3.49,20641899,24754.5,1386252,131744.4286,7377688,21c,Device,nokia,7950-xrs-20,,core-aln1.l-sws.21cn-infra.bt.com
Mon Apr 01 2024 00:15:04 GMT+0000 (Greenwich Mean Time),core-aln2,cf-c,10.162.3.140,20596623,27485.76667,1649146,154485.15,9269109,21c,Device,nokia,7950-xrs-20,,core-aln2.cf-c.21cn-infra.bt.com
Mon Apr 01 2024 00:15:12 GMT+0000 (Greenwich Mean Time),core-aln1,pe,10.162.3.10,20615566,28299.63333,1697978,162445.9333,9746756,21c,Device,nokia,7950-xrs-20,,core-aln1.pe.21cn-infra.bt.com
Mon Apr 01 2024 00:15:15 GMT+0000 (Greenwich Mean Time),core-aln2,l-sws,10.162.3.177,20641901,24736.39286,1385238,131761.8929,7378666,21c,Device,nokia,7950-xrs-20,,core-aln2.l-sws.21cn-infra.bt.com
Mon Apr 01 2024 00:15:19 GMT+0000 (Greenwich Mean Time),core-aln1,wv,10.162.3.13,20615614,24784.33929,1387923,133073.125,7452095,21c,Device,nokia,7950-xrs-20,,core-aln1.wv.21cn-infra.bt.com
Mon Apr 01 2024 00:15:20 GMT+0000 (Greenwich Mean Time),core-aln1,cf-c,10.162.3.12,20596620,27436.46667,1646188,155850.4333,9351026,21c,Device,nokia,7950-xrs-20,,core-aln1.cf-c.21cn-infra.bt.com
Mon Apr 01 2024 00:15:20 GMT+0000 (Greenwich Mean Time),core-aln2,wv,10.162.3.141,20615616,24783.92857,1387900,129738.2321,7265341,21c,Device,nokia,7950-xrs-20,,core-aln2.wv.21cn-infra.bt.com
Mon Apr 01 2024 00:15:21 GMT+0000 (Greenwich Mean Time),core-aln1,l-far,10.162.3.0,20607803,33925.35294,2306924,220751.7794,15011121,21c,Device,nokia,7950-xrs-20,,core-aln1.l-far.21cn-infra.bt.com
Mon Apr 01 2024 00:15:26 GMT+0000 (Greenwich Mean Time),core-aln2,l-far,10.162.3.128,20607805,33907.25,2305693,222693.8824,15143184,21c,Device,nokia,7950-xrs-20,,core-aln2.l-far.21cn-infra.bt.com
Mon Apr 01 2024 00:15:28 GMT+0000 (Greenwich Mean Time),core-aln2,pe,10.162.3.138,20615569,28303.48333,1698209,162491.95,9749517,21c,Device,nokia,7950-xrs-20,,core-aln2.pe.21cn-infra.bt.com
Mon Apr 01 2024 00:16:02 GMT+0000 (Greenwich Mean Time),core-aln1,l-sws,10.162.3.49,20641899,24754.89286,1386274,131715.0357,7376042,21c,Device,nokia,7950-xrs-20,,core-aln1.l-sws.21cn-infra.bt.com
Mon Apr 01 2024 00:16:03 GMT+0000 (Greenwich Mean Time),core-aln2,l-sws,10.162.3.177,20641901,24739.14286,1385392,131744.7321,7377705,21c,Device,nokia,7950-xrs-20,,core-aln2.l-sws.21cn-infra.bt.com
Mon Apr 01 2024 00:16:07 GMT+0000 (Greenwich Mean Time),core-aln1,pe,10.162.3.10,20615566,28300,1698000,162516.8333,9751010,21c,Device,nokia,7950-xrs-20,,core-aln1.pe.21cn-infra.bt.com
Mon Apr 01 2024 00:16:12 GMT+0000 (Greenwich Mean Time),core-aln2,cf-c,10.162.3.140,20596623,27485.4,1649124,154510.35,9270621,21c,Device,nokia,7950-xrs-20,,core-aln2.cf-c.21cn-infra.bt.com
Mon Apr 01 2024 00:16:12 GMT+0000 (Greenwich Mean Time),core-aln2,wv,10.162.3.141,20615616,24781.58929,1387769,129743.1429,7265616,21c,Device,nokia,7950-xrs-20,,core-aln2.wv.21cn-infra.bt.com
Mon Apr 01 2024 00:16:14 GMT+0000 (Greenwich Mean Time),core-aln2,l-far,10.162.3.128,20607805,33907.89706,2305737,222780.6912,15149087,21c,Device,nokia,7950-xrs-20,,core-aln2.l-far.21cn-infra.bt.com
Mon Apr 01 2024 00:16:15 GMT+0000 (Greenwich Mean Time),core-aln1,wv,10.162.3.13,20615614,24783.94643,1387901,133048.5893,7450721,21c,Device,nokia,7950-xrs-20,,core-aln1.wv.21cn-infra.bt.com
Mon Apr 01 2024 00:16:17 GMT+0000 (Greenwich Mean Time),core-aln1,l-far,10.162.3.0,20607803,33925.35294,2306924,220703.3088,15007825,21c,Device,nokia,7950-xrs-20,,core-aln1.l-far.21cn-infra.bt.com
Mon Apr 01 2024 00:16:20 GMT+0000 (Greenwich Mean Time),core-aln1,cf-c,10.162.3.12,20596620,27438.3,1646298,155905.3333,9354320,21c,Device,nokia,7950-xrs-20,,core-aln1.cf-c.21cn-infra.bt.com
Mon Apr 01 2024 00:16:20 GMT+0000 (Greenwich Mean Time),core-aln2,pe,10.162.3.138,20615569,28304.58333,1698275,162718.4667,9763108,21c,Device,nokia,7950-xrs-20,,core-aln2.pe.21cn-infra.bt.com
Mon Apr 01 2024 00:17:03 GMT+0000 (Greenwich Mean Time),core-aln2,wv,10.162.3.141,20615616,24780.41071,1387703,130564.5357,7311614,21c,Device,nokia,7950-xrs-20,,core-aln2.wv.21cn-infra.bt.com
Mon Apr 01 2024 00:17:03 GMT+0000 (Greenwich Mean Time),core-aln2,l-sws,10.162.3.177,20641901,24739.14286,1385392,131886.9464,7385669,21c,Device,nokia,7950-xrs-20,,core-aln2.l-sws.21cn-infra.bt.com
Mon Apr 01 2024 00:17:04 GMT+0000 (Greenwich Mean Time),core-aln1,wv,10.162.3.13,20615614,24784.33929,1387923,133048.5893,7450721,21c,Device,nokia,7950-xrs-20,,core-aln1.wv.21cn-infra.bt.com
Mon Apr 01 2024 00:17:08 GMT+0000 (Greenwich Mean Time),core-aln2,pe,10.162.3.138,20615569,28303.48333,1698209,162780.2667,9766816,21c,Device,nokia,7950-xrs-20,,core-aln2.pe.21cn-infra.bt.com
Mon Apr 01 2024 00:17:09 GMT+0000 (Greenwich Mean Time),core-aln1,l-far,10.162.3.0,20607803,33926,2306968,220610.4412,15001510,21c,Device,nokia,7950-xrs-20,,core-aln1.l-far.21cn-infra.bt.com
Mon Apr 01 2024 00:17:11 GMT+0000 (Greenwich Mean Time),core-aln2,cf-c,10.162.3.140,20596623,27479.53333,1648772,156114.5167,9366871,21c,Device,nokia,7950-xrs-20,,core-aln2.cf-c.21cn-infra.bt.com
Mon Apr 01 2024 00:17:11 GMT+0000 (Greenwich Mean Time),core-aln1,pe,10.162.3.10,20615566,28299.63333,1697978,162484.8,9749088,21c,Device,nokia,7950-xrs-20,,core-aln1.pe.21cn-infra.bt.com
Mon Apr 01 2024 00:17:12 GMT+0000 (Greenwich Mean Time),core-aln1,cf-c,10.162.3.12,20596620,27437.56667,1646254,155857.3167,9351439,21c,Device,nokia,7950-xrs-20,,core-aln1.cf-c.21cn-infra.bt.com
Mon Apr 01 2024 00:17:14 GMT+0000 (Greenwich Mean Time),core-aln1,l-sws,10.162.3.49,20641899,24754.10714,1386230,131715.0357,7376042,21c,Device,nokia,7950-xrs-20,,core-aln1.l-sws.21cn-infra.bt.com
Mon Apr 01 2024 00:17:17 GMT+0000 (Greenwich Mean Time),core-aln2,l-far,10.162.3.128,20607805,33906.92647,2305671,222849.3676,15153757,21c,Device,nokia,7950-xrs-20,,core-aln2.l-far.21cn-infra.bt.com
Mon Apr 01 2024 00:18:02 GMT+0000 (Greenwich Mean Time),core-aln1,l-sws,10.162.3.49,20641899,24754.89286,1386274,131744.4464,7377689,21c,Device,nokia,7950-xrs-20,,core-aln1.l-sws.21cn-infra.bt.com
Mon Apr 01 2024 00:18:04 GMT+0000 (Greenwich Mean Time),core-aln2,pe,10.162.3.138,20615569,28301.28333,1698077,162851.1833,9771071,21c,Device,nokia,7950-xrs-20,,core-aln2.pe.21cn-infra.bt.com
Mon Apr 01 2024 00:18:07 GMT+0000 (Greenwich Mean Time),core-aln2,wv,10.162.3.141,20615616,24775.71429,1387440,131464.375,7362005,21c,Device,nokia,7950-xrs-20,,core-aln2.wv.21cn-infra.bt.com
Mon Apr 01 2024 00:18:09 GMT+0000 (Greenwich Mean Time),core-aln1,l-far,10.162.3.0,20607803,33926,2306968,220590.2353,15000136,21c,Device,nokia,7950-xrs-20,,core-aln1.l-far.21cn-infra.bt.com
Mon Apr 01 2024 00:18:10 GMT+0000 (Greenwich Mean Time),core-aln2,l-far,10.162.3.128,20607805,33907.25,2305693,222718.1324,15144833,21c,Device,nokia,7950-xrs-20,,core-aln2.l-far.21cn-infra.bt.com
Mon Apr 01 2024 00:18:10 GMT+0000 (Greenwich Mean Time),core-aln1,wv,10.162.3.13,20615614,24784.33929,1387923,133060.8393,7451407,21c,Device,nokia,7950-xrs-20,,core-aln1.wv.21cn-infra.bt.com
Mon Apr 01 2024 00:18:10 GMT+0000 (Greenwich Mean Time),core-aln2,l-sws,10.162.3.177,20641901,24739.14286,1385392,131975.1786,7390610,21c,Device,nokia,7950-xrs-20,,core-aln2.l-sws.21cn-infra.bt.com
Mon Apr 01 2024 00:18:11 GMT+0000 (Greenwich Mean Time),core-aln1,cf-c,10.162.3.12,20596620,27437.93333,1646276,154127.9,9247674,21c,Device,nokia,7950-xrs-20,,core-aln1.cf-c.21cn-infra.bt.com
Mon Apr 01 2024 00:18:11 GMT+0000 (Greenwich Mean Time),core-aln2,cf-c,10.162.3.140,20596623,27480.63333,1648838,156043.6,9362616,21c,Device,nokia,7950-xrs-20,,core-aln2.cf-c.21cn-infra.bt.com
Mon Apr 01 2024 00:18:16 GMT+0000 (Greenwich Mean Time),core-aln1,pe,10.162.3.10,20615566,28299.63333,1697978,162523.7167,9751423,21c,Device,nokia,7950-xrs-20,,core-aln1.pe.21cn-infra.bt.com
Mon Apr 01 2024 00:19:02 GMT+0000 (Greenwich Mean Time),core-aln1,l-sws,10.162.3.49,20641899,24754.89286,1386274,131768.9821,7379063,21c,Device,nokia,7950-xrs-20,,core-aln1.l-sws.21cn-infra.bt.com
Mon Apr 01 2024 00:19:10 GMT+0000 (Greenwich Mean Time),core-aln1,wv,10.162.3.13,20615614,24784.73214,1387945,133060.8571,7451408,21c,Device,nokia,7950-xrs-20,,core-aln1.wv.21cn-infra.bt.com
Mon Apr 01 2024 00:19:11 GMT+0000 (Greenwich Mean Time),core-aln2,l-sws,10.162.3.177,20641901,24739.53571,1385414,132070.8214,7395966,21c,Device,nokia,7950-xrs-20,,core-aln2.l-sws.21cn-infra.bt.com
Mon Apr 01 2024 00:19:13 GMT+0000 (Greenwich Mean Time),core-aln2,l-far,10.162.3.128,20607805,33907.57353,2305715,222697.9118,15143458,21c,Device,nokia,7950-xrs-20,,core-aln2.l-far.21cn-infra.bt.com
Mon Apr 01 2024 00:19:15 GMT+0000 (Greenwich Mean Time),core-aln1,cf-c,10.162.3.12,20596620,27437.56667,1646254,154061.5167,9243691,21c,Device,nokia,7950-xrs-20,,core-aln1.cf-c.21cn-infra.bt.com
Mon Apr 01 2024 00:19:15 GMT+0000 (Greenwich Mean Time),core-aln2,cf-c,10.162.3.140,20596623,27480.26667,1648816,155876.55,9352593,21c,Device,nokia,7950-xrs-20,,core-aln2.cf-c.21cn-infra.bt.com
Mon Apr 01 2024 00:19:18 GMT+0000 (Greenwich Mean Time),core-aln2,wv,10.162.3.141,20615616,24776.10714,1387462,131233.9286,7349100,21c,Device,nokia,7950-xrs-20,,core-aln2.wv.21cn-infra.bt.com
Mon Apr 01 2024 00:19:19 GMT+0000 (Greenwich Mean Time),core-aln1,pe,10.162.3.10,20615566,28299.63333,1697978,162500.8167,9750049,21c,Device,nokia,7950-xrs-20,,core-aln1.pe.21cn-infra.bt.com
Mon Apr 01 2024 00:19:19 GMT+0000 (Greenwich Mean Time),core-aln2,pe,10.162.3.138,20615569,28300.18333,1698011,164333.45,9860007,21c,Device,nokia,7950-xrs-20,,core-aln2.pe.21cn-infra.bt.com
Mon Apr 01 2024 00:19:25 GMT+0000 (Greenwich Mean Time),core-aln1,l-far,10.162.3.0,20607803,33926.64706,2307012,220576.1471,14999178,21c,Device,nokia,7950-xrs-20,,core-aln1.l-far.21cn-infra.bt.com
Mon Apr 01 2024 00:20:04 GMT+0000 (Greenwich Mean Time),core-aln2,pe,10.162.3.138,20615569,28295.78333,1697747,164228.1667,9853690,21c,Device,nokia,7950-xrs-20,,core-aln2.pe.21cn-infra.bt.com
Mon Apr 01 2024 00:20:07 GMT+0000 (Greenwich Mean Time),core-aln1,l-sws,10.162.3.49,20641899,24754.10714,1386230,131756.6964,7378375,21c,Device,nokia,7950-xrs-20,,core-aln1.l-sws.21cn-infra.bt.com
Mon Apr 01 2024 00:20:07 GMT+0000 (Greenwich Mean Time),core-aln2,l-sws,10.162.3.177,20641901,24738.35714,1385348,132100.25,7397614,21c,Device,nokia,7950-xrs-20,,core-aln2.l-sws.21cn-infra.bt.com
Mon Apr 01 2024 00:20:11 GMT+0000 (Greenwich Mean Time),core-aln2,cf-c,10.162.3.140,20596623,27483.2,1648992,155910.9,9354654,21c,Device,nokia,7950-xrs-20,,core-aln2.cf-c.21cn-infra.bt.com
Mon Apr 01 2024 00:20:11 GMT+0000 (Greenwich Mean Time),core-aln1,pe,10.162.3.10,20615566,28300,1698000,162500.8333,9750050,21c,Device,nokia,7950-xrs-20,,core-aln1.pe.21cn-infra.bt.com
Mon Apr 01 2024 00:20:11 GMT+0000 (Greenwich Mean Time),core-aln2,wv,10.162.3.141,20615616,24778.46429,1387594,131187.3393,7346491,21c,Device,nokia,7950-xrs-20,,core-aln2.wv.21cn-infra.bt.com
Mon Apr 01 2024 00:20:14 GMT+0000 (Greenwich Mean Time),core-aln1,l-far,10.162.3.0,20607803,33927.29412,2307056,220697.2353,15007412,21c,Device,nokia,7950-xrs-20,,core-aln1.l-far.21cn-infra.bt.com
Mon Apr 01 2024 00:20:14 GMT+0000 (Greenwich Mean Time),core-aln2,l-far,10.162.3.128,20607805,33907.25,2305693,222708,15144144,21c,Device,nokia,7950-xrs-20,,core-aln2.l-far.21cn-infra.bt.com
Mon Apr 01 2024 00:20:19 GMT+0000 (Greenwich Mean Time),core-aln1,cf-c,10.162.3.12,20596620,27437.2,1646232,155818.3833,9349103,21c,Device,nokia,7950-xrs-20,,core-aln1.cf-c.21cn-infra.bt.com
Mon Apr 01 2024 00:20:19 GMT+0000 (Greenwich Mean Time),core-aln1,wv,10.162.3.13,20615614,24784.33929,1387923,133073.125,7452095,21c,Device,nokia,7950-xrs-20,,core-aln1.wv.21cn-infra.bt.com
Mon Apr 01 2024 00:21:02 GMT+0000 (Greenwich Mean Time),core-aln2,l-sws,10.162.3.177,20641901,24739.14286,1385392,132029.1071,7393630,21c,Device,nokia,7950-xrs-20,,core-aln2.l-sws.21cn-infra.bt.com
Mon Apr 01 2024 00:21:03 GMT+0000 (Greenwich Mean Time),core-aln2,wv,10.162.3.141,20615616,24779.25,1387638,131216.7321,7348137,21c,Device,nokia,7950-xrs-20,,core-aln2.wv.21cn-infra.bt.com
Mon Apr 01 2024 00:21:06 GMT+0000 (Greenwich Mean Time),core-aln1,l-sws,10.162.3.49,20641899,24754.89286,1386274,131715.0179,7376041,21c,Device,nokia,7950-xrs-20,,core-aln1.l-sws.21cn-infra.bt.com
Mon Apr 01 2024 00:21:07 GMT+0000 (Greenwich Mean Time),core-aln2,cf-c,10.162.3.140,20596623,27485.03333,1649102,154160.2333,9249614,21c,Device,nokia,7950-xrs-20,,core-aln2.cf-c.21cn-infra.bt.com
Mon Apr 01 2024 00:21:07 GMT+0000 (Greenwich Mean Time),core-aln1,pe,10.162.3.10,20615566,28299.63333,1697978,162500.8333,9750050,21c,Device,nokia,7950-xrs-20,,core-aln1.pe.21cn-infra.bt.com
Mon Apr 01 2024 00:21:12 GMT+0000 (Greenwich Mean Time),core-aln1,cf-c,10.162.3.12,20596620,27437.2,1646232,154967.1167,9298027,21c,Device,nokia,7950-xrs-20,,core-aln1.cf-c.21cn-infra.bt.com
Mon Apr 01 2024 00:21:13 GMT+0000 (Greenwich Mean Time),core-aln2,l-far,10.162.3.128,20607805,33907.57353,2305715,222756.4706,15147440,21c,Device,nokia,7950-xrs-20,,core-aln2.l-far.21cn-infra.bt.com
Mon Apr 01 2024 00:21:14 GMT+0000 (Greenwich Mean Time),core-aln1,wv,10.162.3.13,20615614,24784.33929,1387923,133031.4107,7449759,21c,Device,nokia,7950-xrs-20,,core-aln1.wv.21cn-infra.bt.com
Mon Apr 01 2024 00:21:15 GMT+0000 (Greenwich Mean Time),core-aln2,pe,10.162.3.138,20615569,28297.25,1697835,163997.0833,9839825,21c,Device,nokia,7950-xrs-20,,core-aln2.pe.21cn-infra.bt.com
Mon Apr 01 2024 00:21:17 GMT+0000 (Greenwich Mean Time),core-aln1,l-far,10.162.3.0,20607803,33926,2306968,220624.5735,15002471,21c,Device,nokia,7950-xrs-20,,core-aln1.l-far.21cn-infra.bt.com
Mon Apr 01 2024 00:22:03 GMT+0000 (Greenwich Mean Time),core-aln1,cf-c,10.162.3.12,20596620,27436.83333,1646210,154956.3,9297378,21c,Device,nokia,7950-xrs-20,,core-aln1.cf-c.21cn-infra.bt.com
Mon Apr 01 2024 00:22:06 GMT+0000 (Greenwich Mean Time),core-aln1,l-sws,10.162.3.49,20641899,24754.5,1386252,131715.0357,7376042,21c,Device,nokia,7950-xrs-20,,core-aln1.l-sws.21cn-infra.bt.com
Mon Apr 01 2024 00:22:11 GMT+0000 (Greenwich Mean Time),core-aln2,pe,10.162.3.138,20615569,28297.98333,1697879,163960.4833,9837629,21c,Device,nokia,7950-xrs-20,,core-aln2.pe.21cn-infra.bt.com
Mon Apr 01 2024 00:22:11 GMT+0000 (Greenwich Mean Time),core-aln2,l-sws,10.162.3.177,20641901,24736,1385216,132053.6786,7395006,21c,Device,nokia,7950-xrs-20,,core-aln2.l-sws.21cn-infra.bt.com
Mon Apr 01 2024 00:22:14 GMT+0000 (Greenwich Mean Time),core-aln2,l-far,10.162.3.128,20607805,33908.22059,2305759,222693.8824,15143184,21c,Device,nokia,7950-xrs-20,,core-aln2.l-far.21cn-infra.bt.com
Mon Apr 01 2024 00:22:15 GMT+0000 (Greenwich Mean Time),core-aln1,pe,10.162.3.10,20615566,28300,1698000,162539.7333,9752384,21c,Device,nokia,7950-xrs-20,,core-aln1.pe.21cn-infra.bt.com
Mon Apr 01 2024 00:22:15 GMT+0000 (Greenwich Mean Time),core-aln2,wv,10.162.3.141,20615616,24781.98214,1387791,129377.8571,7245160,21c,Device,nokia,7950-xrs-20,,core-aln2.wv.21cn-infra.bt.com
Mon Apr 01 2024 00:22:16 GMT+0000 (Greenwich Mean Time),core-aln2,cf-c,10.162.3.140,20596623,27486.13333,1649168,154251.75,9255105,21c,Device,nokia,7950-xrs-20,,core-aln2.cf-c.21cn-infra.bt.com
Mon Apr 01 2024 00:22:17 GMT+0000 (Greenwich Mean Time),core-aln1,l-far,10.162.3.0,20607803,33926.64706,2307012,220561.9706,14998214,21c,Device,nokia,7950-xrs-20,,core-aln1.l-far.21cn-infra.bt.com
Mon Apr 01 2024 00:22:18 GMT+0000 (Greenwich Mean Time),core-aln1,wv,10.162.3.13,20615614,24783.55357,1387879,133048.5893,7450721,21c,Device,nokia,7950-xrs-20,,core-aln1.wv.21cn-infra.bt.com
Mon Apr 01 2024 00:23:06 GMT+0000 (Greenwich Mean Time),core-aln2,l-sws,10.162.3.177,20641901,24735.60714,1385194,131867.3036,7384569,21c,Device,nokia,7950-xrs-20,,core-aln2.l-sws.21cn-infra.bt.com
Mon Apr 01 2024 00:23:07 GMT+0000 (Greenwich Mean Time),core-aln1,wv,10.162.3.13,20615614,24784.73214,1387945,133031.4286,7449760,21c,Device,nokia,7950-xrs-20,,core-aln1.wv.21cn-infra.bt.com
Mon Apr 01 2024 00:23:07 GMT+0000 (Greenwich Mean Time),core-aln2,wv,10.162.3.141,20615616,24782.35714,1387812,129453.8571,7249416,21c,Device,nokia,7950-xrs-20,,core-aln2.wv.21cn-infra.bt.com
Mon Apr 01 2024 00:23:10 GMT+0000 (Greenwich Mean Time),core-aln1,l-sws,10.162.3.49,20641899,24754.10714,1386230,131656.1786,7372746,21c,Device,nokia,7950-xrs-20,,core-aln1.l-sws.21cn-infra.bt.com
Mon Apr 01 2024 00:23:11 GMT+0000 (Greenwich Mean Time),core-aln2,cf-c,10.162.3.140,20596623,27489.06667,1649344,154363.8667,9261832,21c,Device,nokia,7950-xrs-20,,core-aln2.cf-c.21cn-infra.bt.com
Mon Apr 01 2024 00:23:13 GMT+0000 (Greenwich Mean Time),core-aln1,l-far,10.162.3.0,20607803,33925.67647,2306946,220509.5147,14994647,21c,Device,nokia,7950-xrs-20,,core-aln1.l-far.21cn-infra.bt.com
Mon Apr 01 2024 00:23:13 GMT+0000 (Greenwich Mean Time),core-aln2,l-far,10.162.3.128,20607805,33907.57353,2305715,222703.9853,15143871,21c,Device,nokia,7950-xrs-20,,core-aln2.l-far.21cn-infra.bt.com
Mon Apr 01 2024 00:23:15 GMT+0000 (Greenwich Mean Time),core-aln1,cf-c,10.162.3.12,20596620,27436.83333,1646210,155784.05,9347043,21c,Device,nokia,7950-xrs-20,,core-aln1.cf-c.21cn-infra.bt.com
Mon Apr 01 2024 00:23:15 GMT+0000 (Greenwich Mean Time),core-aln1,pe,10.162.3.10,20615566,28299.63333,1697978,162512.2833,9750737,21c,Device,nokia,7950-xrs-20,,core-aln1.pe.21cn-infra.bt.com
Mon Apr 01 2024 00:23:15 GMT+0000 (Greenwich Mean Time),core-aln2,pe,10.162.3.138,20615569,28301.65,1698099,163917.0333,9835022,21c,Device,nokia,7950-xrs-20,,core-aln2.pe.21cn-infra.bt.com
Mon Apr 01 2024 00:24:03 GMT+0000 (Greenwich Mean Time),core-aln2,pe,10.162.3.138,20615569,28300.55,1698033,164038.3167,9842299,21c,Device,nokia,7950-xrs-20,,core-aln2.pe.21cn-infra.bt.com
Mon Apr 01 2024 00:24:03 GMT+0000 (Greenwich Mean Time),core-aln2,wv,10.162.3.141,20615616,24783.92857,1387900,129542.1071,7254358,21c,Device,nokia,7950-xrs-20,,core-aln2.wv.21cn-infra.bt.com
Mon Apr 01 2024 00:24:10 GMT+0000 (Greenwich Mean Time),core-aln2,l-far,10.162.3.128,20607805,33907.89706,2305737,222693.8824,15143184,21c,Device,nokia,7950-xrs-20,,core-aln2.l-far.21cn-infra.bt.com
Mon Apr 01 2024 00:24:10 GMT+0000 (Greenwich Mean Time),core-aln1,l-sws,10.162.3.49,20641899,24754.89286,1386274,131673.3393,7373707,21c,Device,nokia,7950-xrs-20,,core-aln1.l-sws.21cn-infra.bt.com
Mon Apr 01 2024 00:24:10 GMT+0000 (Greenwich Mean Time),core-aln2,l-sws,10.162.3.177,20641901,24734.42857,1385128,131786.4107,7380039,21c,Device,nokia,7950-xrs-20,,core-aln2.l-sws.21cn-infra.bt.com
Mon Apr 01 2024 00:24:11 GMT+0000 (Greenwich Mean Time),core-aln1,cf-c,10.162.3.12,20596620,27437.2,1646232,155850.4333,9351026,21c,Device,nokia,7950-xrs-20,,core-aln1.cf-c.21cn-infra.bt.com
Mon Apr 01 2024 00:24:11 GMT+0000 (Greenwich Mean Time),core-aln2,cf-c,10.162.3.140,20596623,27486.5,1649190,154425.6333,9265538,21c,Device,nokia,7950-xrs-20,,core-aln2.cf-c.21cn-infra.bt.com
Mon Apr 01 2024 00:24:11 GMT+0000 (Greenwich Mean Time),core-aln1,wv,10.162.3.13,20615614,24784.73214,1387945,132977.4643,7446738,21c,Device,nokia,7950-xrs-20,,core-aln1.wv.21cn-infra.bt.com
Mon Apr 01 2024 00:24:17 GMT+0000 (Greenwich Mean Time),core-aln1,l-far,10.162.3.0,20607803,33926.64706,2307012,220513.5294,14994920,21c,Device,nokia,7950-xrs-20,,core-aln1.l-far.21cn-infra.bt.com
Mon Apr 01 2024 00:24:19 GMT+0000 (Greenwich Mean Time),core-aln1,pe,10.162.3.10,20615566,28300,1698000,162473.3667,9748402,21c,Device,nokia,7950-xrs-20,,core-aln1.pe.21cn-infra.bt.com
Mon Apr 01 2024 00:25:03 GMT+0000 (Greenwich Mean Time),core-aln2,cf-c,10.162.3.140,20596623,27487.23333,1649234,154503.4333,9270206,21c,Device,nokia,7950-xrs-20,,core-aln2.cf-c.21cn-infra.bt.com
Mon Apr 01 2024 00:25:03 GMT+0000 (Greenwich Mean Time),core-aln2,pe,10.162.3.138,20615569,28302.38333,1698143,163205.3333,9792320,21c,Device,nokia,7950-xrs-20,,core-aln2.pe.21cn-infra.bt.com
Mon Apr 01 2024 00:25:06 GMT+0000 (Greenwich Mean Time),core-aln1,l-sws,10.162.3.49,20641899,24754.5,1386252,131631.6429,7371372,21c,Device,nokia,7950-xrs-20,,core-aln1.l-sws.21cn-infra.bt.com
Mon Apr 01 2024 00:25:06 GMT+0000 (Greenwich Mean Time),core-aln2,l-sws,10.162.3.177,20641901,24736,1385216,131803.5714,7381000,21c,Device,nokia,7950-xrs-20,,core-aln2.l-sws.21cn-infra.bt.com
Mon Apr 01 2024 00:25:07 GMT+0000 (Greenwich Mean Time),core-aln2,wv,10.162.3.141,20615616,24782.75,1387834,129713.7321,7263969,21c,Device,nokia,7950-xrs-20,,core-aln2.wv.21cn-infra.bt.com
Mon Apr 01 2024 00:25:10 GMT+0000 (Greenwich Mean Time),core-aln1,wv,10.162.3.13,20615614,24783.94643,1387901,133019.1607,7449073,21c,Device,nokia,7950-xrs-20,,core-aln1.wv.21cn-infra.bt.com
Mon Apr 01 2024 00:25:11 GMT+0000 (Greenwich Mean Time),core-aln1,cf-c,10.162.3.12,20596620,27437.93333,1646276,154095.8667,9245752,21c,Device,nokia,7950-xrs-20,,core-aln1.cf-c.21cn-infra.bt.com
Mon Apr 01 2024 00:25:15 GMT+0000 (Greenwich Mean Time),core-aln1,pe,10.162.3.10,20615566,28299.26667,1697956,162528.2833,9751697,21c,Device,nokia,7950-xrs-20,,core-aln1.pe.21cn-infra.bt.com
Mon Apr 01 2024 00:25:17 GMT+0000 (Greenwich Mean Time),core-aln2,l-far,10.162.3.128,20607805,33908.22059,2305759,222669.6471,15141536,21c,Device,nokia,7950-xrs-20,,core-aln2.l-far.21cn-infra.bt.com
Mon Apr 01 2024 00:25:21 GMT+0000 (Greenwich Mean Time),core-aln1,l-far,10.162.3.0,20607803,33926.97059,2307034,220572.0882,14998902,21c,Device,nokia,7950-xrs-20,,core-aln1.l-far.21cn-infra.bt.com
Mon Apr 01 2024 00:26:10 GMT+0000 (Greenwich Mean Time),core-aln1,l-sws,10.162.3.49,20641899,24754.10714,1386230,131631.625,7371371,21c,Device,nokia,7950-xrs-20,,core-aln1.l-sws.21cn-infra.bt.com
Mon Apr 01 2024 00:26:10 GMT+0000 (Greenwich Mean Time),core-aln2,l-sws,10.162.3.177,20641901,24737.57143,1385304,131791.3036,7380313,21c,Device,nokia,7950-xrs-20,,core-aln2.l-sws.21cn-infra.bt.com
Mon Apr 01 2024 00:26:11 GMT+0000 (Greenwich Mean Time),core-aln1,pe,10.162.3.10,20615566,28299.63333,1697978,162512.25,9750735,21c,Device,nokia,7950-xrs-20,,core-aln1.pe.21cn-infra.bt.com
Mon Apr 01 2024 00:26:11 GMT+0000 (Greenwich Mean Time),core-aln2,pe,10.162.3.138,20615569,28303.11667,1698187,162503.4167,9750205,21c,Device,nokia,7950-xrs-20,,core-aln2.pe.21cn-infra.bt.com
Mon Apr 01 2024 00:26:14 GMT+0000 (Greenwich Mean Time),core-aln1,wv,10.162.3.13,20615614,24784.73214,1387945,132960.3214,7445778,21c,Device,nokia,7950-xrs-20,,core-aln1.wv.21cn-infra.bt.com
Mon Apr 01 2024 00:26:15 GMT+0000 (Greenwich Mean Time),core-aln2,cf-c,10.162.3.140,20596623,27483.93333,1649036,154508.0167,9270481,21c,Device,nokia,7950-xrs-20,,core-aln2.cf-c.21cn-infra.bt.com
Mon Apr 01 2024 00:26:15 GMT+0000 (Greenwich Mean Time),core-aln2,wv,10.162.3.141,20615616,24781.96429,1387790,129743.1429,7265616,21c,Device,nokia,7950-xrs-20,,core-aln2.wv.21cn-infra.bt.com
Mon Apr 01 2024 00:26:16 GMT+0000 (Greenwich Mean Time),core-aln1,cf-c,10.162.3.12,20596620,27436.83333,1646210,154045.5,9242730,21c,Device,nokia,7950-xrs-20,,core-aln1.cf-c.21cn-infra.bt.com
Mon Apr 01 2024 00:26:17 GMT+0000 (Greenwich Mean Time),core-aln1,l-far,10.162.3.0,20607803,33927.29412,2307056,220572.0882,14998902,21c,Device,nokia,7950-xrs-20,,core-aln1.l-far.21cn-infra.bt.com
Mon Apr 01 2024 00:26:17 GMT+0000 (Greenwich Mean Time),core-aln2,l-far,10.162.3.128,20607805,33907.25,2305693,222708.0147,15144145,21c,Device,nokia,7950-xrs-20,,core-aln2.l-far.21cn-infra.bt.com
Mon Apr 01 2024 00:27:03 GMT+0000 (Greenwich Mean Time),core-aln1,cf-c,10.162.3.12,20596620,27437.56667,1646254,154933.4,9296004,21c,Device,nokia,7950-xrs-20,,core-aln1.cf-c.21cn-infra.bt.com
Mon Apr 01 2024 00:27:05 GMT+0000 (Greenwich Mean Time),core-aln1,l-far,10.162.3.0,20607803,33926.32353,2306990,220499.4118,14993960,21c,Device,nokia,7950-xrs-20,,core-aln1.l-far.21cn-infra.bt.com
Mon Apr 01 2024 00:27:07 GMT+0000 (Greenwich Mean Time),core-aln2,l-sws,10.162.3.177,20641901,24739.14286,1385392,131904.1071,7386630,21c,Device,nokia,7950-xrs-20,,core-aln2.l-sws.21cn-infra.bt.com
Mon Apr 01 2024 00:27:10 GMT+0000 (Greenwich Mean Time),core-aln1,wv,10.162.3.13,20615614,24784.33929,1387923,133014.2679,7448799,21c,Device,nokia,7950-xrs-20,,core-aln1.wv.21cn-infra.bt.com
Mon Apr 01 2024 00:27:10 GMT+0000 (Greenwich Mean Time),core-aln1,l-sws,10.162.3.49,20641899,24754.89286,1386274,131722.4107,7376455,21c,Device,nokia,7950-xrs-20,,core-aln1.l-sws.21cn-infra.bt.com
Mon Apr 01 2024 00:27:11 GMT+0000 (Greenwich Mean Time),core-aln2,cf-c,10.162.3.140,20596623,27483.93333,1649036,155281.5,9316890,21c,Device,nokia,7950-xrs-20,,core-aln2.cf-c.21cn-infra.bt.com
Mon Apr 01 2024 00:27:11 GMT+0000 (Greenwich Mean Time),core-aln2,pe,10.162.3.138,20615569,28304.21667,1698253,162604.0833,9756245,21c,Device,nokia,7950-xrs-20,,core-aln2.pe.21cn-infra.bt.com
Mon Apr 01 2024 00:27:11 GMT+0000 (Greenwich Mean Time),core-aln2,wv,10.162.3.141,20615616,24780.41071,1387703,129672.0536,7261635,21c,Device,nokia,7950-xrs-20,,core-aln2.wv.21cn-infra.bt.com
Mon Apr 01 2024 00:27:13 GMT+0000 (Greenwich Mean Time),core-aln2,l-far,10.162.3.128,20607805,33908.22059,2305759,222558.6324,15133987,21c,Device,nokia,7950-xrs-20,,core-aln2.l-far.21cn-infra.bt.com
Mon Apr 01 2024 00:27:15 GMT+0000 (Greenwich Mean Time),core-aln1,pe,10.162.3.10,20615566,28300,1698000,162473.35,9748401,21c,Device,nokia,7950-xrs-20,,core-aln1.pe.21cn-infra.bt.com
Mon Apr 01 2024 00:28:06 GMT+0000 (Greenwich Mean Time),core-aln1,wv,10.162.3.13,20615614,24784.33929,1387923,133002.0179,7448113,21c,Device,nokia,7950-xrs-20,,core-aln1.wv.21cn-infra.bt.com
Mon Apr 01 2024 00:28:06 GMT+0000 (Greenwich Mean Time),core-aln1,l-sws,10.162.3.49,20641899,24755.28571,1386296,131668.4286,7373432,21c,Device,nokia,7950-xrs-20,,core-aln1.l-sws.21cn-infra.bt.com
Mon Apr 01 2024 00:28:07 GMT+0000 (Greenwich Mean Time),core-aln1,pe,10.162.3.10,20615566,28300.73333,1698044,162512.2667,9750736,21c,Device,nokia,7950-xrs-20,,core-aln1.pe.21cn-infra.bt.com
Mon Apr 01 2024 00:28:09 GMT+0000 (Greenwich Mean Time),core-aln1,l-far,10.162.3.0,20607803,33926.97059,2307034,220523.6176,14995606,21c,Device,nokia,7950-xrs-20,,core-aln1.l-far.21cn-infra.bt.com
Mon Apr 01 2024 00:28:11 GMT+0000 (Greenwich Mean Time),core-aln2,cf-c,10.162.3.140,20596623,27476.6,1648596,156043.5833,9362615,21c,Device,nokia,7950-xrs-20,,core-aln2.cf-c.21cn-infra.bt.com
Mon Apr 01 2024 00:28:11 GMT+0000 (Greenwich Mean Time),core-aln2,wv,10.162.3.141,20615616,24776.5,1387484,131469.2857,7362280,21c,Device,nokia,7950-xrs-20,,core-aln2.wv.21cn-infra.bt.com
Mon Apr 01 2024 00:28:14 GMT+0000 (Greenwich Mean Time),core-aln2,l-far,10.162.3.128,20607805,33906.92647,2305671,222669.6471,15141536,21c,Device,nokia,7950-xrs-20,,core-aln2.l-far.21cn-infra.bt.com
Mon Apr 01 2024 00:28:14 GMT+0000 (Greenwich Mean Time),core-aln2,l-sws,10.162.3.177,20641901,24737.96429,1385326,131987.4643,7391298,21c,Device,nokia,7950-xrs-20,,core-aln2.l-sws.21cn-infra.bt.com
Mon Apr 01 2024 00:28:15 GMT+0000 (Greenwich Mean Time),core-aln1,cf-c,10.162.3.12,20596620,27437.93333,1646276,155784.0667,9347044,21c,Device,nokia,7950-xrs-20,,core-aln1.cf-c.21cn-infra.bt.com
Mon Apr 01 2024 00:28:15 GMT+0000 (Greenwich Mean Time),core-aln2,pe,10.162.3.138,20615569,28304.58333,1698275,162773.4,9766404,21c,Device,nokia,7950-xrs-20,,core-aln2.pe.21cn-infra.bt.com
Mon Apr 01 2024 00:29:03 GMT+0000 (Greenwich Mean Time),core-aln2,wv,10.162.3.141,20615616,24776.10714,1387462,131400.6607,7358437,21c,Device,nokia,7950-xrs-20,,core-aln2.wv.21cn-infra.bt.com
Mon Apr 01 2024 00:29:07 GMT+0000 (Greenwich Mean Time),core-aln1,cf-c,10.162.3.12,20596620,27437.93333,1646276,154967.1167,9298027,21c,Device,nokia,7950-xrs-20,,core-aln1.cf-c.21cn-infra.bt.com
Mon Apr 01 2024 00:29:07 GMT+0000 (Greenwich Mean Time),core-aln2,l-sws,10.162.3.177,20641901,24738.35714,1385348,131970.3214,7390338,21c,Device,nokia,7950-xrs-20,,core-aln2.l-sws.21cn-infra.bt.com
Mon Apr 01 2024 00:29:09 GMT+0000 (Greenwich Mean Time),core-aln2,l-far,10.162.3.128,20607805,33909.51471,2305847,222631.3088,15138929,21c,Device,nokia,7950-xrs-20,,core-aln2.l-far.21cn-infra.bt.com
Mon Apr 01 2024 00:29:10 GMT+0000 (Greenwich Mean Time),core-aln1,wv,10.162.3.13,20615614,24784.73214,1387945,132930.9107,7444131,21c,Device,nokia,7950-xrs-20,,core-aln1.wv.21cn-infra.bt.com
Mon Apr 01 2024 00:29:10 GMT+0000 (Greenwich Mean Time),core-aln1,l-sws,10.162.3.49,20641899,24754.5,1386252,131631.6429,7371372,21c,Device,nokia,7950-xrs-20,,core-aln1.l-sws.21cn-infra.bt.com
Mon Apr 01 2024 00:29:11 GMT+0000 (Greenwich Mean Time),core-aln2,cf-c,10.162.3.140,20596623,27478.43333,1648706,155881.1167,9352867,21c,Device,nokia,7950-xrs-20,,core-aln2.cf-c.21cn-infra.bt.com
Mon Apr 01 2024 00:29:11 GMT+0000 (Greenwich Mean Time),core-aln2,pe,10.162.3.138,20615569,28299.08333,1697945,164612.65,9876759,21c,Device,nokia,7950-xrs-20,,core-aln2.pe.21cn-infra.bt.com
Mon Apr 01 2024 00:29:15 GMT+0000 (Greenwich Mean Time),core-aln1,pe,10.162.3.10,20615566,28299.63333,1697978,162512.2667,9750736,21c,Device,nokia,7950-xrs-20,,core-aln1.pe.21cn-infra.bt.com
Mon Apr 01 2024 00:29:17 GMT+0000 (Greenwich Mean Time),core-aln1,l-far,10.162.3.0,20607803,33926.32353,2306990,220420.6471,14988604,21c,Device,nokia,7950-xrs-20,,core-aln1.l-far.21cn-infra.bt.com
Mon Apr 01 2024 00:30:05 GMT+0000 (Greenwich Mean Time),core-aln1,pe,10.162.3.10,20615566,28300,1698000,162489.3667,9749362,21c,Device,nokia,7950-xrs-20,,core-aln1.pe.21cn-infra.bt.com
Mon Apr 01 2024 00:30:07 GMT+0000 (Greenwich Mean Time),core-aln2,l-sws,10.162.3.177,20641901,24738.35714,1385348,132083.1071,7396654,21c,Device,nokia,7950-xrs-20,,core-aln2.l-sws.21cn-infra.bt.com
Mon Apr 01 2024 00:30:09 GMT+0000 (Greenwich Mean Time),core-aln2,pe,10.162.3.138,20615569,28296.51667,1697791,164285.4167,9857125,21c,Device,nokia,7950-xrs-20,,core-aln2.pe.21cn-infra.bt.com
Mon Apr 01 2024 00:30:11 GMT+0000 (Greenwich Mean Time),core-aln2,wv,10.162.3.141,20615616,24777.28571,1387528,131216.7679,7348139,21c,Device,nokia,7950-xrs-20,,core-aln2.wv.21cn-infra.bt.com
Mon Apr 01 2024 00:30:12 GMT+0000 (Greenwich Mean Time),core-aln1,cf-c,10.162.3.12,20596620,27437.2,1646232,154928.2,9295692,21c,Device,nokia,7950-xrs-20,,core-aln1.cf-c.21cn-infra.bt.com
Mon Apr 01 2024 00:30:12 GMT+0000 (Greenwich Mean Time),core-aln2,l-far,10.162.3.128,20607805,33909.51471,2305847,222576.7794,15135221,21c,Device,nokia,7950-xrs-20,,core-aln2.l-far.21cn-infra.bt.com
Mon Apr 01 2024 00:30:12 GMT+0000 (Greenwich Mean Time),core-aln1,l-sws,10.162.3.49,20641899,24754.89286,1386274,131702.7679,7375355,21c,Device,nokia,7950-xrs-20,,core-aln1.l-sws.21cn-infra.bt.com
